City_ID,City,Lat,Lng,Max Temp,Humidity,Cloudiness,Wind Speed,Country,Date
0,port-aux-francais,-49.35,70.2167,6.16,98,100,7.58,TF,1685303729
1,olonkinbyen,70.9221,-8.7187,0.86,98,100,2.15,SJ,1685303729
2,grytviken,-54.2811,-36.5092,-0.5,89,73,5.84,GS,1685303729
3,pico truncado,-46.7949,-67.9573,8.55,39,70,4.1,AR,1685303730
4,bethel,41.3712,-73.414,30.1,39,0,2.57,US,1685303731
5,sochi,43.6,39.7303,18.05,76,99,1.54,RU,1685303731
6,hawaiian paradise park,19.5933,-154.9731,25.73,76,40,3.09,US,1685303732
7,daru,-9.0763,143.2092,24.9,82,99,3.61,PG,1685303732
8,sao jose da coroa grande,-8.8978,-35.1478,25.74,82,82,3.67,BR,1685303732
9,iskateley,67.6803,53.1512,7.72,51,12,5.39,RU,1685303733
10,touros,-5.1989,-35.4608,26.87,78,100,5.28,BR,1685303734
11,edinburgh of the seven seas,-37.0676,-12.3116,16.12,75,91,10.71,SH,1685303734
12,whitehorse,60.7161,-135.0538,12.23,45,75,7.2,CA,1685303734
13,thompson,55.7435,-97.8558,17.09,94,100,2.06,CA,1685303735
14,jamestown,42.097,-79.2353,26.4,33,0,5.14,US,1685303735
15,bredasdorp,-34.5322,20.0403,13.68,89,34,5.59,ZA,1685303736
16,khilok,51.3674,110.4676,1.79,80,0,1.43,RU,1685303736
17,qaqortoq,60.7167,-46.0333,3.9,88,100,1.77,GL,1685303736
18,ushuaia,-54.8,-68.3,8.81,71,0,8.75,AR,1685303737
19,konosha,60.9736,40.257,8.15,63,46,2.95,RU,1685303737
20,key largo,25.0865,-80.4473,31.0,65,4,4.16,US,1685303577
21,st. john's,47.5649,-52.7093,14.04,63,100,1.34,CA,1685303738
22,west island,-12.1568,96.8225,26.99,78,100,3.09,CC,1685303738
23,kovalam,8.3667,76.9967,29.05,84,40,2.06,IN,1685303739
24,tangalle,6.024,80.7911,26.18,91,96,4.13,LK,1685303739
25,kerikeri,-35.2268,173.9474,17.73,95,22,0.45,NZ,1685303739
26,karungdong,5.8844,121.263,27.49,82,100,2.47,PH,1685303740
27,utrik,11.2278,169.8474,27.7,78,100,6.6,MH,1685303740
28,kununurra,-15.7667,128.7333,13.99,54,11,1.54,AU,1685303741
29,quellon,-43.1167,-73.6167,9.14,76,0,1.54,CL,1685303741
30,neryungri,56.6709,124.6491,0.77,86,8,0.94,RU,1685303741
31,port blair,11.6667,92.75,29.02,79,40,2.06,IN,1685303742
32,geraldton,-28.7667,114.6,10.23,71,100,3.6,AU,1685303742
33,atasu,48.6814,71.6433,12.24,34,23,3.36,KZ,1685303743
34,itoman,26.1247,127.6694,26.21,94,100,8.23,JP,1685303743
35,basco,20.4487,121.9702,27.2,88,100,14.8,PH,1685303743
36,ruidoso,33.3317,-105.673,25.48,24,0,3.6,US,1685303621
37,villamontes,-21.25,-63.5,18.8,56,98,2.7,BO,1685303745
38,la toma,-33.0526,-65.6238,13.55,51,63,6.87,AR,1685303745
39,pader,3.05,33.2167,20.81,77,90,1.44,UG,1685303746
40,georgetown,5.4112,100.3354,27.97,80,20,1.54,MY,1685303746
41,bilibino,68.0546,166.4372,2.69,98,100,2.78,RU,1685303747
42,qarqaraly,49.4058,75.4742,7.55,40,3,0.54,KZ,1685303747
43,iqaluit,63.7506,-68.5145,-1.15,68,40,5.66,CA,1685303748
44,topolobampo,25.6,-109.05,29.18,48,2,6.78,MX,1685303748
45,blackmans bay,-43.0167,147.3167,11.07,76,100,6.39,AU,1685303749
46,san pedro pochutla,15.7333,-96.4667,33.84,47,5,4.84,MX,1685303370
47,swakopmund,-22.6833,14.5333,14.47,81,100,0.89,NA,1685303750
48,enewetak,11.3474,162.3373,27.75,78,100,6.75,MH,1685303750
49,puerto natales,-51.7236,-72.4875,12.25,62,75,5.14,CL,1685303750
50,klyuchi,52.2667,79.1667,11.96,44,48,0.29,RU,1685303751
51,chifeng,42.2683,118.9636,15.55,73,100,1.36,CN,1685303751
52,pisco,-13.7,-76.2167,22.03,73,100,5.66,PE,1685303666
53,flying fish cove,-10.4217,105.6791,25.82,83,100,3.6,CX,1685303752
54,butte,39.6499,-121.5677,26.27,54,47,3.12,US,1685303752
55,adamstown,-25.066,-130.1015,21.11,52,99,7.69,PN,1685303753
56,bouar,5.934,15.596,17.2,95,100,0.88,CF,1685303753
57,dakhla,23.6848,-15.958,21.01,78,40,8.75,EH,1685303754
58,fortuna,40.5982,-124.1573,17.18,83,100,2.57,US,1685303755
59,illizi,26.4833,8.4667,34.89,13,90,2.98,DZ,1685303755
60,dalnerechensk,45.9339,133.7225,10.55,69,77,0.96,RU,1685303755
61,khobi,42.3156,41.8987,19.39,76,99,3.47,GE,1685303756
62,waitangi,-43.9535,-176.5597,14.34,80,40,7.59,NZ,1685303756
63,salaqi,40.5414,110.5108,18.74,21,99,3.32,CN,1685303757
64,bukama,-9.2,25.85,21.2,49,100,0.49,CD,1685303757
65,homer,59.6425,-151.5483,6.94,92,100,6.26,US,1685303757
66,papatowai,-46.5619,169.4708,13.12,78,100,3.55,NZ,1685303758
67,isafjordur,66.0755,-23.124,7.21,92,100,1.74,IS,1685303758
68,port lincoln,-34.7333,135.8667,15.29,91,92,4.51,AU,1685303759
69,el hadjira,32.6134,5.5126,30.93,16,91,7.16,DZ,1685303759
70,chonchi,-42.6128,-73.8092,7.56,86,100,0.67,CL,1685303760
71,labrador city,52.9463,-66.9114,3.95,81,75,11.83,CA,1685303760
72,messaad,34.1543,3.5031,21.0,43,76,7.69,DZ,1685303760
73,shimokizukuri,40.8061,140.3861,16.64,98,100,1.31,JP,1685303761
74,mananjary,-21.2167,48.3333,20.28,77,16,0.13,MG,1685303761
75,albany,42.6001,-73.9662,31.76,34,3,2.28,US,1685303762
76,buka,40.8108,69.1986,21.71,20,0,2.64,UZ,1685303762
77,al kharj,24.155,47.3346,36.32,21,98,3.76,SA,1685303728
78,leme,-22.1856,-47.3903,22.82,82,100,2.75,BR,1685303763
79,port elizabeth,-33.918,25.5701,17.4,89,20,4.12,ZA,1685303768
80,shiyan,32.6475,110.7781,18.14,97,100,1.06,CN,1685303534
81,ataq,14.5377,46.8319,25.06,64,2,5.16,YE,1685303769
82,brookings,44.3114,-96.7984,27.92,31,0,5.66,US,1685303553
83,puerto ayora,-0.7393,-90.3518,30.98,91,79,3.58,EC,1685303770
84,nar'yan-mar,67.6713,53.087,7.84,51,11,5.46,RU,1685303770
85,sinabang,2.4803,96.3801,26.55,80,100,2.05,ID,1685303771
86,egilsstadir,65.2653,-14.3948,10.95,76,100,3.09,IS,1685303771
87,acu,-5.5767,-36.9086,28.84,66,87,3.14,BR,1685303772
88,yanbu,24.0891,38.0637,33.02,62,20,5.14,SA,1685303772
89,bhadasar,28.2833,74.3167,25.48,60,100,6.75,IN,1685303772
90,nova vicosa,-17.8919,-39.3719,24.03,78,66,3.03,BR,1685303773
91,lazaro cardenas,17.9583,-102.2,32.12,54,3,5.01,MX,1685303278
92,port douglas,-16.4833,145.4667,20.24,81,100,4.03,AU,1685303774
93,port saint john's,-31.6229,29.5448,21.7,63,90,2.89,ZA,1685303774
94,kidal,18.4411,1.4078,35.83,18,98,5.93,ML,1685303774
95,kayangel,8.0823,134.7173,28.89,77,100,7.12,PW,1685303775
96,citra,29.4119,-82.1098,30.07,57,2,3.02,US,1685303775
97,vuktyl,63.8567,57.3094,12.88,88,100,4.95,RU,1685303776
98,seosan,36.7817,126.4522,17.57,99,100,0.44,KR,1685303776
99,hermanus,-34.4187,19.2345,14.33,84,96,6.48,ZA,1685303777
100,hamilton,39.1834,-84.5333,25.43,54,75,2.57,US,1685303122
101,machali,-34.1833,-70.6667,13.6,72,100,1.54,CL,1685303777
102,brokopondo,4.75,-55.1667,28.69,76,92,1.02,SR,1685303778
103,nuuk,64.1835,-51.7216,4.34,65,40,6.17,GL,1685303367
104,prado,-17.3411,-39.2208,23.43,83,40,2.39,BR,1685303779
105,walvis bay,-22.9575,14.5053,14.53,77,100,1.54,NA,1685303779
106,stanley,54.868,-1.6985,10.43,77,20,2.06,GB,1685303779
107,tiksi,71.6872,128.8694,0.41,95,41,3.05,RU,1685303780
108,margaret river,-33.95,115.0667,13.36,81,100,2.23,AU,1685303781
109,fale old settlement,-9.3852,-171.2468,28.64,76,100,6.75,TK,1685303781
110,santarem,-2.4431,-54.7083,30.07,79,20,2.06,BR,1685303781
111,minas de marcona,-15.2119,-75.1103,18.75,68,99,5.18,PE,1685303782
112,tarawa,1.419,172.984,29.05,79,75,3.6,KI,1685303782
113,college,64.8569,-147.8028,17.83,43,75,3.6,US,1685303783
114,kill devil hills,36.0307,-75.676,27.0,94,75,4.12,US,1685303783
115,tenno,39.9,139.9667,15.97,98,100,1.1,JP,1685303783
116,livingstone,-17.8419,25.8543,15.26,52,0,1.92,ZM,1685303784
117,juan griego,11.0817,-63.9655,35.07,52,15,6.69,VE,1685303784
118,pangody,65.85,74.4859,8.15,96,100,6.29,RU,1685303784
119,invercargill,-46.4,168.35,10.16,83,100,2.58,NZ,1685303785
120,badger,64.8,-147.5333,17.78,42,100,3.6,US,1685303785
121,khanty-mansiysk,61.0042,69.0019,18.06,72,0,4.02,RU,1685303786
122,horley,51.1742,-0.1592,17.86,59,0,6.17,GB,1685303786
123,alice springs,-23.7,133.8833,1.75,80,1,3.07,AU,1685303786
124,jian'ou,27.0469,118.3253,22.84,89,0,1.34,CN,1685303787
125,suntar,62.1444,117.6319,4.6,75,5,1.21,RU,1685303787
126,tabou,4.423,-7.3528,26.3,85,69,1.54,CI,1685303788
127,adapazari,40.7806,30.4033,17.18,97,99,0.52,TR,1685303788
128,mantua,45.1667,10.7833,24.53,79,58,1.84,IT,1685303789
129,saint-pierre,-21.3393,55.4781,21.82,83,0,2.57,RE,1685303789
130,fort william,56.8165,-5.1121,12.39,74,100,1.69,GB,1685303789
131,salym,60.0625,71.4789,13.2,89,79,2.56,RU,1685303790
132,sisimiut,66.9395,-53.6735,-0.39,58,15,4.67,GL,1685303790
133,hammerfest,70.6634,23.6821,6.25,81,20,1.03,NO,1685303790
134,sparti,37.0733,22.4297,18.3,84,75,0.83,GR,1685303791
135,san matias,-16.3667,-58.4,22.87,80,100,4.48,BO,1685303791
136,kapuskasing,49.4169,-82.4331,23.05,43,20,2.57,CA,1685303792
137,ilulissat,69.2167,-51.1,-2.91,66,68,3.17,GL,1685303327
138,eyl,7.9803,49.8164,28.03,78,81,8.65,SO,1685303793
139,dali,25.7,100.1833,16.46,70,0,2.21,CN,1685303793
140,le vauclin,14.5452,-60.8388,30.03,62,40,7.2,MQ,1685303794
141,doka,13.5167,35.7667,29.82,48,45,4.89,SD,1685303794
142,lospalos,-8.5186,127.0025,21.57,78,89,3.32,TL,1685303794
143,yellowknife,62.456,-114.3525,19.29,32,75,5.14,CA,1685303795
144,fort mcmurray,56.7268,-111.381,28.77,17,0,7.2,CA,1685303386
145,petropavlovsk-kamchatsky,53.0452,158.6483,7.33,93,75,1.0,RU,1685303796
146,beidao,34.5686,105.8933,15.57,92,90,1.23,CN,1685303796
147,anadyr,64.75,177.4833,5.28,70,0,4.0,RU,1685303796
148,ochobo,7.183,7.9769,26.29,82,78,1.98,NG,1685303797
149,udachny,66.4167,112.4,10.25,57,99,1.94,RU,1685303797
150,el calafate,-50.3408,-72.2768,5.73,84,100,2.53,AR,1685303798
151,suileng,47.25,127.0833,8.87,65,0,2.89,CN,1685303798
152,hasaki,35.7333,140.8333,20.12,86,100,4.83,JP,1685303798
153,mana,5.6592,-53.7767,27.91,81,50,3.62,GF,1685303799
154,dudinka,69.4058,86.1778,9.17,72,100,6.86,RU,1685303799
155,gadzhiyevo,69.2551,33.3362,9.49,74,100,8.28,RU,1685303800
156,lihue,21.9789,-159.3672,24.77,84,40,2.57,US,1685303516
157,alofi,-19.0595,-169.9187,24.94,100,17,2.06,NU,1685303801
158,yangi qal'ah,37.4657,69.6113,22.09,20,56,1.54,AF,1685303801
159,cidreira,-30.1811,-50.2056,17.31,56,57,4.05,BR,1685303801
160,bantilan,14.7519,121.6656,27.04,83,100,3.44,PH,1685303802
161,montepuez,-13.1256,38.9997,17.34,82,0,1.86,MZ,1685303802
162,atafu village,-8.5421,-172.5159,29.11,74,52,8.26,TK,1685303802
163,namtsy,62.7161,129.6658,8.19,71,27,1.3,RU,1685303803
164,pacific grove,36.6177,-121.9166,17.23,81,100,4.63,US,1685303747
165,benoy,8.9833,16.3199,26.48,68,100,2.95,TD,1685303804
166,tazovsky,67.4667,78.7,5.44,97,100,6.56,RU,1685303804
167,nova sintra,14.8667,-24.7167,20.99,84,71,8.46,CV,1685303805
168,kodiak,57.79,-152.4072,8.73,49,75,2.57,US,1685303805
169,tolanaro,-25.0319,46.9987,23.04,78,20,8.23,MG,1685303805
170,tinde,-3.8833,33.2,21.97,53,46,3.98,TZ,1685303806
171,camacupa,-12.0167,17.4833,18.32,48,5,0.92,AO,1685303806
172,westport,41.1415,-73.3579,29.61,36,0,5.66,US,1685303796
173,hotan,37.0997,79.9269,19.17,26,2,2.98,CN,1685303807
174,susuman,62.7833,148.1667,6.52,41,83,1.27,RU,1685303807
175,tual,-5.6667,132.75,27.34,79,89,9.3,ID,1685303808
176,isangel,-19.55,169.2667,23.3,77,12,2.06,VU,1685303808
177,gambiran satu,-8.3939,114.1464,21.8,91,71,0.54,ID,1685303808
178,codrington,-38.2667,141.9667,12.77,70,100,6.29,AU,1685303809
179,thenzawl,23.3167,92.75,18.9,85,0,0.9,IN,1685303809
180,queanbeyan,-35.35,149.2333,9.14,82,99,4.63,AU,1685303810
181,olinda,-8.0089,-34.8553,26.85,78,40,5.66,BR,1685303810
182,elk river,45.3038,-93.5672,28.47,24,100,2.24,US,1685303810
183,tarko-sale,64.9225,77.785,16.08,36,100,8.66,RU,1685303811
184,tuba city,36.135,-111.2399,25.38,11,0,3.69,US,1685303811
185,greenville,35.6127,-77.3663,25.01,95,100,5.14,US,1685303811
186,novokruchininskiy,51.7833,113.7667,1.85,95,74,1.79,RU,1685303812
187,san buenaventura,27.0833,-101.5333,28.51,61,75,3.09,MX,1685303812
188,naze,28.3667,129.4833,22.51,97,64,3.45,JP,1685303813
189,canchungo,12.0672,-16.0333,30.07,77,100,4.41,GW,1685303813
190,veinticinco de mayo,-35.4323,-60.1727,13.88,41,26,2.24,AR,1685303813
191,marquette,46.5333,-87.6335,27.1,31,92,2.68,US,1685303814
192,fort riley north,39.1108,-96.8139,26.83,48,40,4.12,US,1685303814
193,kailua-kona,19.6406,-155.9956,27.5,74,75,6.17,US,1685303815
194,lively,46.4334,-81.1498,28.51,16,4,0.54,CA,1685303815
195,anse royale,-4.7333,55.5167,27.32,78,40,5.66,SC,1685303816
196,kwaksan,39.6875,125.0828,16.3,93,100,1.65,KP,1685303816
197,midvagur,62.0511,-7.1939,8.46,87,100,4.63,FO,1685303816
198,ngaoundere,7.3167,13.5833,18.23,98,61,1.81,CM,1685303817
199,songjiang,31.036,121.2146,23.98,93,98,2.75,CN,1685303817
200,sibolga,1.7427,98.7792,24.01,89,38,1.45,ID,1685303817
201,nadym,65.5333,72.5167,6.69,89,100,8.46,RU,1685303818
202,pishin,30.5803,66.9961,22.41,33,41,2.93,PK,1685303818
203,aykhal,66.0,111.5,7.83,75,100,2.6,RU,1685303819
204,remire-montjoly,4.9167,-52.2667,28.02,83,40,3.09,GF,1685303819
205,petauke,-14.2426,31.3253,16.31,60,0,2.82,ZM,1685303819
206,isfana,39.8386,69.5306,14.31,40,11,2.39,KG,1685303820
207,dhidhdhoo,6.8833,73.1,29.51,75,99,6.7,MV,1685303820
208,margate,51.3813,1.3862,13.5,84,88,6.71,GB,1685303821
209,callao,-12.0667,-77.15,25.95,73,100,5.66,PE,1685303821
210,ringkobing,56.0901,8.244,9.45,68,87,8.83,DK,1685303822
211,posse,-14.0931,-46.3694,28.67,32,54,1.23,BR,1685303746
212,amurzet,47.6967,131.0981,8.71,70,27,2.87,RU,1685303822
213,tarakan,3.3,117.6333,26.82,84,79,3.57,ID,1685303823
214,horta,38.5333,-28.6333,17.8,81,75,5.66,PT,1685303823
215,chilchota,19.85,-102.1333,27.78,33,43,2.78,MX,1685303824
216,mount gambier,-37.8333,140.7667,12.53,75,87,3.35,AU,1685303824
217,mersing,2.4312,103.8405,25.95,94,20,1.54,MY,1685303554
218,ifrane,33.3333,-5.25,9.05,85,88,1.92,MA,1685303825
219,tura,25.5198,90.2201,23.05,71,0,1.66,IN,1685303826
220,kourou,5.1552,-52.6478,28.03,79,51,2.89,GF,1685303826
221,butembo,0.15,29.2833,15.96,83,35,1.84,CD,1685303827
222,tindwari,25.6167,80.5333,32.47,41,6,2.44,IN,1685303827
223,talnakh,69.4865,88.3972,4.18,85,26,4.57,RU,1685303828
224,kingston,17.997,-76.7936,32.36,65,20,7.72,JM,1685303828
225,ola,59.5833,151.2833,7.85,56,75,2.37,RU,1685303828
226,faro,37.0194,-7.9322,20.66,82,0,8.75,PT,1685303829
227,ciudad tula,23.0,-99.7167,28.39,44,15,3.79,MX,1685303829
228,sarkand,45.41,79.9186,7.28,64,3,2.68,KZ,1685303830
229,celestun,20.8667,-90.4,28.94,64,88,5.19,MX,1685303830
230,talara,-4.5772,-81.2719,29.42,61,0,5.66,PE,1685303831
231,sitka,57.0531,-135.33,7.94,87,100,3.09,US,1685303788
232,mil'kovo,55.6078,37.7956,12.22,66,3,2.9,RU,1685303831
233,rongelap,11.1635,166.8941,27.43,80,100,5.76,MH,1685303832
234,kingscliff,-28.2667,153.5667,7.89,71,73,2.06,AU,1685303832
235,miracema do tocantins,-9.5618,-48.3967,30.76,51,34,1.94,BR,1685303832
236,mitu,1.1983,-70.1733,27.8,75,99,0.53,CO,1685303833
237,palangkaraya,-2.2,113.8333,23.82,97,95,1.07,ID,1685303833
238,port moresby,-9.4431,147.1797,22.68,100,75,1.54,PG,1685303834
239,aden,12.7794,45.0367,31.19,68,7,4.54,YE,1685303834
240,taroa,8.7058,171.2275,27.73,82,100,6.19,MH,1685303834
241,kapa'a,22.0752,-159.319,25.99,88,40,2.57,US,1685303835
242,satuek,15.297,103.2919,26.16,78,73,2.01,TH,1685303835
243,zakynthos,37.7914,20.8953,19.8,77,50,1.36,GR,1685303836
244,saipan,15.1355,145.701,27.39,89,75,5.66,MP,1685303836
245,berdigestyakh,62.0989,126.6992,6.55,65,85,1.61,RU,1685303837
246,bhikangaon,21.8667,75.95,32.83,38,0,3.78,IN,1685303837
247,la passe,45.5549,-0.8967,26.13,76,5,4.93,FR,1685303837
248,karasburg,-28.0167,18.75,13.53,29,51,2.89,NA,1685303838
249,necochea,-38.5473,-58.7368,9.77,51,99,4.63,AR,1685303442
250,cabo san lucas,22.8909,-109.9124,30.9,44,0,4.63,MX,1685303731
251,vadso,70.0744,29.7487,10.49,71,20,5.14,NO,1685303839
252,kamianske,48.5113,34.6021,15.5,85,98,4.17,UA,1685303839
253,saint-philippe,-21.3585,55.7679,21.77,84,100,6.76,RE,1685303840
254,kargat,55.1956,80.2811,11.41,74,100,2.16,RU,1685303840
255,port mathurin,-19.6833,63.4167,24.37,75,100,10.76,MU,1685303841
256,san antonio de pale,-1.4014,5.6325,26.11,81,99,5.87,GQ,1685303841
257,tejen,37.3834,60.5054,26.84,17,4,4.44,TM,1685303842
258,wailua homesteads,22.0669,-159.378,25.24,88,40,2.57,US,1685303842
259,fort st. john,56.2499,-120.8529,17.94,39,75,6.69,CA,1685303843
260,ulladulla,-35.35,150.4667,12.74,65,23,4.21,AU,1685303843
261,hacibektas,38.9408,34.5577,11.77,82,40,4.12,TR,1685303844
262,lautoka,-17.6167,177.4667,23.92,94,75,1.54,FJ,1685303844
263,hithadhoo,-0.6,73.0833,28.22,73,33,2.87,MV,1685303845
264,dolores,-36.3132,-57.6792,9.63,66,71,2.34,AR,1685303845
265,diu,20.7141,70.9822,27.8,86,0,5.58,IN,1685303680
266,shubarkuduk,49.1447,56.4872,21.01,30,100,4.72,KZ,1685303846
267,tucuma,-0.1833,-50.05,26.33,90,95,2.59,BR,1685303847
268,yarmouth,41.7057,-70.2286,23.31,51,0,8.75,US,1685303795
269,tamandare,-8.7597,-35.1047,25.82,82,77,3.51,BR,1685303847
270,khovd,48.0056,91.6419,13.75,40,99,1.98,MN,1685303848
271,berezovyy,51.6667,135.7,1.72,88,19,0.97,RU,1685303848
272,avarua,-21.2078,-159.775,26.03,89,40,5.14,CK,1685303849
273,howard springs,-12.497,131.047,17.95,36,100,3.51,AU,1685303849
274,severo-yeniseyskiy,60.3725,93.0408,5.04,81,59,1.26,RU,1685303849
275,geiro,-6.15,36.8667,16.0,85,99,1.65,TZ,1685303850
276,merizo village,13.2658,144.6691,27.21,85,94,7.23,GU,1685303850
277,guaraniacu,-25.1008,-52.8781,17.19,98,99,1.0,BR,1685303851
278,bontang,0.1333,117.5,25.06,93,100,3.27,ID,1685303851
279,sibiti,-3.6819,13.3499,21.69,91,91,0.64,CG,1685303851
280,daliang,22.8504,113.247,28.36,77,0,2.58,CN,1685303852
281,vorgashor,67.5833,63.95,4.72,82,7,4.0,RU,1685303852
282,changling,44.2653,124.0005,13.1,53,21,3.59,CN,1685303853
283,nemuro,43.3236,145.575,9.19,100,100,2.06,JP,1685303853
284,chenzhou,25.8,113.0333,25.04,87,0,1.79,CN,1685303854
285,constantia,44.1833,28.65,16.5,88,100,4.62,RO,1685303778
286,trairi,-3.2778,-39.2689,26.94,80,45,4.53,BR,1685303854
287,plastun,44.7561,136.2939,9.51,74,0,3.08,RU,1685303855
288,kuala belait,4.5833,114.1833,26.09,86,95,1.4,BN,1685303855
289,ankang,32.68,109.0172,19.82,95,100,1.35,CN,1685303856
290,argo,37.6333,22.7333,19.88,71,8,1.28,GR,1685303856
291,vale da amoreira,39.0697,-7.6985,15.49,90,98,2.9,PT,1685303856
292,amga,60.8953,131.9608,7.61,74,96,0.83,RU,1685303857
293,ciudad insurgentes,25.2625,-111.7753,26.97,29,0,7.05,MX,1685303857
294,ust-nera,64.5667,143.2,7.98,51,100,0.94,RU,1685303858
295,liski,50.9841,39.5155,12.46,69,3,4.5,RU,1685303858
296,palu,-0.8917,119.8707,25.19,94,100,0.72,ID,1685303858
297,ancud,-41.8697,-73.8203,7.67,75,100,1.39,CL,1685303859
298,lerwick,60.1545,-1.1494,9.0,80,100,6.86,GB,1685303859
299,port augusta,-32.5,137.7667,13.04,93,73,2.03,AU,1685303860
300,prince rupert,54.3161,-130.3201,11.05,87,100,9.77,CA,1685303860
301,tsiombe,-25.3,45.4833,20.08,92,42,1.54,MG,1685303860
302,altamira,-3.2033,-52.2064,33.05,62,40,2.06,BR,1685303826
303,taksimo,56.3444,114.8794,7.47,71,100,0.5,RU,1685303861
304,byram,32.1793,-90.2454,30.04,47,20,1.54,US,1685303862
305,tabina,7.4669,123.4081,27.62,81,100,2.95,PH,1685303862
306,new norfolk,-42.7826,147.0587,11.72,70,100,2.24,AU,1685303862
307,leticia,-4.2153,-69.9406,32.03,70,40,1.54,CO,1685303863
308,lijiang,26.8688,100.2207,12.93,77,0,2.32,CN,1685303863
309,pauini,-7.7136,-66.9764,31.95,54,67,0.95,BR,1685303863
310,taulaga,-11.0553,-171.0883,28.67,74,37,6.85,AS,1685303864
311,basud,14.065,122.9642,26.06,90,90,3.78,PH,1685303864
312,kone,-21.0595,164.8658,18.54,84,13,1.73,NC,1685303865
313,rantauprapat,2.1,99.8333,22.45,94,42,1.02,ID,1685303865
314,nikolayevsk-on-amure,53.1406,140.73,2.49,94,100,2.14,RU,1685303865
315,tarfaya,27.9358,-12.9218,20.29,73,100,5.18,MA,1685303866
316,stornoway,58.2093,-6.3865,10.98,70,100,3.6,GB,1685303866
317,medina,24.4686,39.6142,24.24,69,40,4.63,SA,1685303816
318,ketchikan,55.3422,-131.6461,11.26,93,100,5.14,US,1685303867
319,sierra grande,-41.606,-65.3557,14.38,18,2,3.58,AR,1685303868
320,inhambane,-23.865,35.3833,22.99,78,0,3.13,MZ,1685303868
321,belmonte,-15.8631,-38.8828,24.34,80,8,2.82,BR,1685303869
322,zhanjiang,21.2815,110.3427,26.13,90,0,3.18,CN,1685303869
323,punta arenas,-53.15,-70.9167,9.06,76,20,11.83,CL,1685303870
324,san patricio,28.017,-97.5169,29.39,60,100,5.75,US,1685303870
325,starobil's'k,49.2783,38.9107,14.77,92,70,3.22,UA,1685303871
326,mili,6.0815,171.735,28.23,79,100,6.46,MH,1685303871
327,mocimboa,-11.3167,40.35,22.67,83,1,3.27,MZ,1685303872
328,quatre cocos,-20.2078,57.7625,24.06,80,67,8.54,MU,1685303872
329,la quiaca,-22.1024,-65.593,14.71,15,53,1.95,AR,1685303872
330,kuala lipis,4.1842,102.0468,23.25,96,100,0.26,MY,1685303873
331,antsohihy,-14.8796,47.9875,22.75,72,0,2.98,MG,1685303873
332,zyryanovsk,49.7386,84.2719,4.32,85,62,0.57,KZ,1685303874
333,port alfred,-33.5906,26.891,16.43,65,38,6.67,ZA,1685303874
334,axim,4.8699,-2.2405,27.04,84,47,2.25,GH,1685303875
335,newport,51.5877,-2.9984,19.3,74,100,6.67,GB,1685303875
336,uturoa,-16.7333,-151.4333,27.77,72,64,9.9,PF,1685303876
337,glace bay,46.1969,-59.957,29.25,28,75,9.77,CA,1685303659
338,scarborough,54.2797,-0.4044,11.76,81,87,0.45,GB,1685303840
339,alatyr',54.8421,46.5813,11.77,95,0,2.0,RU,1685303877
340,peace river,56.2501,-117.286,21.17,32,40,8.23,CA,1685303877
341,al mawsil al jadidah,36.3346,43.0978,27.6,37,100,1.62,IQ,1685303877
342,phan rang-thap cham,11.5667,108.9833,24.94,90,39,1.39,VN,1685303878
343,north manchester,41.0006,-85.7686,27.4,39,100,4.57,US,1685303878
344,severobaykal'sk,55.65,109.3167,1.6,74,99,0.82,RU,1685303879
345,lebu,-37.6167,-73.65,10.04,67,100,3.05,CL,1685303880
346,mbanza-ngungu,-5.25,14.8667,21.08,90,100,1.76,CD,1685303880
347,praia da vitoria,38.7333,-27.0667,19.14,82,75,4.01,PT,1685303880
348,kalmunai,7.4167,81.8167,28.28,80,75,1.28,LK,1685303881
349,tangier,35.7806,-5.8137,21.58,88,40,4.63,MA,1685303881
350,yokadouma,3.5167,15.05,21.21,98,100,0.8,CM,1685303881
351,palmer,42.1584,-72.3287,30.82,35,0,5.14,US,1685303882
352,linxia chengguanzhen,35.6003,103.2064,12.47,82,35,0.11,CN,1685303882
353,icheon-si,37.2792,127.4425,19.56,100,100,0.51,KR,1685303883
354,adzope,6.1069,-3.8619,23.64,97,58,1.46,CI,1685303883
355,ribeira grande,38.5167,-28.7,18.22,77,75,5.66,PT,1685303883
356,mbalmayo,3.5167,11.5,20.15,100,100,0.4,CM,1685303884
357,betio village,1.358,172.9211,29.02,74,81,5.79,KI,1685303884
358,nova xavantina,-14.6667,-52.35,31.23,41,10,0.16,BR,1685303885
359,puerto aysen,-45.4,-72.7,7.03,96,100,0.71,CL,1685303885
360,mahanoro,-19.9,48.8,19.95,82,43,2.22,MG,1685303885
361,miles city,46.4083,-105.8406,23.54,53,0,3.6,US,1685303886
362,toktogul,41.8708,72.9402,14.76,54,2,1.75,KG,1685303886
363,ridgecrest,35.6225,-117.6709,29.92,17,0,3.09,US,1685303882
364,togane,35.55,140.3667,20.66,87,100,2.81,JP,1685303887
365,nova prata,-28.7839,-51.61,12.38,80,99,1.88,BR,1685303887
366,colonia,50.9333,6.95,20.87,52,0,3.6,DE,1685303650
367,beyla,8.6833,-8.6333,24.06,83,89,1.4,GN,1685303888
368,hadibu,12.65,54.0333,29.64,74,4,3.97,YE,1685303888
369,altai,46.3722,96.2583,11.17,33,100,2.84,MN,1685303889
370,champerico,14.3,-91.9167,34.3,59,13,3.51,GT,1685303889
371,pizarro,4.9533,-77.366,27.41,76,99,0.85,CO,1685303890
372,bengkulu,-3.8004,102.2655,24.37,90,97,2.19,ID,1685303891
373,boali,4.8005,18.1275,21.89,88,100,1.16,CF,1685303891
374,sorong,-0.8833,131.25,25.35,90,12,3.13,ID,1685303891
375,luderitz,-26.6481,15.1594,10.82,89,1,3.68,NA,1685303892
376,longyearbyen,78.2186,15.6401,-0.09,64,0,4.63,SJ,1685303892
377,devonport,-41.1667,146.35,11.16,91,70,7.71,AU,1685303893
378,carutapera,-1.195,-46.02,26.79,88,73,2.57,BR,1685303893
379,pozanti,37.4278,34.8717,15.01,81,83,0.18,TR,1685303893
380,hamada,34.8833,132.0833,20.41,95,100,3.7,JP,1685303894
381,tommot,58.9564,126.2925,3.95,92,77,0.61,RU,1685303894
382,villa gesell,-37.2639,-56.973,11.14,60,99,4.41,AR,1685303895
383,darovskoy,58.77,47.9564,12.12,96,100,3.55,RU,1685303895
384,kavaratti,10.5669,72.642,29.98,72,98,6.13,IN,1685303895
385,khromtau,50.2503,58.4347,18.48,34,100,3.72,KZ,1685303896
386,mbeya,-8.9,33.45,12.26,92,13,2.59,TZ,1685303896
387,palikir - national government center,6.9248,158.1611,26.5,82,100,7.83,FM,1685303897
388,machico,32.7,-16.7667,21.67,81,40,2.57,PT,1685303897
389,morehead city,34.7229,-76.726,25.58,87,75,4.63,US,1685303898
390,ngawi,-7.4038,111.4461,21.89,83,65,1.74,ID,1685303898
391,joshua tree,34.1347,-116.3131,31.34,22,0,4.92,US,1685303703
392,laojunmiao,39.8333,97.7333,10.59,67,100,5.14,CN,1685303899
393,kafir qala,34.6667,61.0667,23.92,17,1,4.96,AF,1685303900
394,namikupa,-10.8333,39.6,18.99,97,0,0.72,TZ,1685303900
395,coyhaique,-45.5752,-72.0662,6.97,65,75,0.0,CL,1685303901
396,cambria,35.5641,-121.0808,23.09,85,47,2.24,US,1685303902
397,tazacorte,28.629,-17.9293,22.54,87,40,2.06,ES,1685303902
398,formosa do rio preto,-11.0483,-45.1931,31.31,33,93,2.32,BR,1685303903
399,tacna,-18.0056,-70.2483,20.11,60,75,3.09,PE,1685303903
400,roma,43.2128,-75.4557,28.06,35,0,4.12,US,1685303701
401,sai buri,6.7013,101.6168,26.09,81,100,2.72,TH,1685303904
402,teapa,17.55,-92.95,37.53,26,13,2.5,MX,1685303904
403,santiago de cao,-7.9589,-79.2392,24.07,73,40,4.63,PE,1685303905
404,miri,4.4148,114.0089,26.08,94,20,1.03,MY,1685303632
405,karratha,-20.7377,116.8463,17.56,31,9,6.56,AU,1685303905
406,kindu,-2.95,25.95,23.95,68,41,0.16,CD,1685303906
407,dapa,9.7594,126.0531,29.12,71,99,5.64,PH,1685303906
408,langxiang,46.95,128.8833,9.38,65,96,1.6,CN,1685303907
409,ouadda,8.0777,22.4007,21.26,95,100,1.23,CF,1685303907
410,ladnun,27.65,74.3833,24.78,67,100,6.37,IN,1685303907
411,manali,13.1667,80.2667,31.05,84,100,3.31,IN,1685303908
412,carnarvon,-24.8667,113.6333,21.16,27,100,3.66,AU,1685303908
413,aldinga beach,-35.2793,138.4604,15.37,86,20,4.19,AU,1685303441
414,suwayr,30.1171,40.3893,25.52,53,100,2.28,SA,1685303909
415,ar rutbah,33.0381,40.2848,22.33,58,100,3.67,IQ,1685303909
416,broome,42.2506,-75.833,29.26,32,0,1.54,US,1685303910
417,kurmuk,10.55,34.2833,24.66,75,94,0.46,SD,1685303910
418,yuzhno-kurilsk,44.0306,145.8556,10.44,96,91,0.92,RU,1685303911
419,bairnsdale,-37.8333,147.6167,6.7,92,47,0.45,AU,1685303911
420,phang nga,8.4509,98.5298,27.02,91,98,1.45,TH,1685303911
421,rawson,-43.3002,-65.1023,11.25,31,100,1.19,AR,1685303912
422,saint-paul,-21.0096,55.2707,24.05,91,17,0.75,RE,1685303749
423,lockwood,45.8191,-108.4149,24.67,42,20,2.57,US,1685303913
424,pithoragarh,29.5833,80.2167,16.48,55,76,1.22,IN,1685303913
425,pimentel,-6.8367,-79.9342,28.16,57,40,8.23,PE,1685303913
426,arteche,12.2645,125.4048,27.76,79,100,6.0,PH,1685303914
427,sao domingos do maranhao,-5.5758,-44.3853,29.45,66,66,0.63,BR,1685303914
428,telica,12.522,-86.8594,31.64,59,95,1.86,NI,1685303915
429,minas novas,-17.2186,-42.5903,25.39,37,98,1.07,BR,1685303915
430,villa del carbon,19.7272,-99.4683,21.08,50,96,2.91,MX,1685303685
431,fort wellington,6.4,-57.6,27.7,81,55,3.34,GY,1685303916
432,quzhou,28.9594,118.8686,24.59,90,71,1.46,CN,1685303917
433,qeshm,26.9581,56.2719,30.93,77,0,2.37,IR,1685303904
434,freetown,8.484,-13.2299,28.84,70,40,5.66,SL,1685303559
435,quelimane,-17.8786,36.8883,23.97,78,20,1.03,MZ,1685303918
436,caleta de carquin,-11.0925,-77.6267,23.34,74,53,4.76,PE,1685303918
437,beaufort,5.3473,115.7455,23.96,97,90,1.02,MY,1685303919
438,fort bragg,35.139,-79.006,21.82,94,100,4.63,US,1685303919
439,gao,16.6362,1.637,35.62,13,99,5.02,ML,1685303919
440,maceio,-9.6658,-35.7353,25.69,88,75,1.03,BR,1685303920
441,itaituba,-4.2761,-55.9836,34.09,55,40,2.57,BR,1685303920
442,abancay,-13.6339,-72.8814,21.4,55,100,2.98,PE,1685303868
443,novofedorivka,46.1713,32.3178,17.95,83,33,4.39,UA,1685303921
444,burela de cabo,43.65,-7.4,17.32,95,16,2.77,ES,1685303921
445,kavieng,-2.5744,150.7967,27.37,80,100,5.24,PG,1685303922
446,redwood falls,44.5394,-95.1169,29.01,21,0,7.2,US,1685303922
447,kargasok,59.0556,80.8572,10.45,81,100,1.8,RU,1685303923
448,mount pearl,47.5166,-52.7813,13.58,63,100,1.34,CA,1685303923
449,ghadamis,30.1337,9.5007,29.63,18,24,7.3,LY,1685303923
450,lamu,-2.2717,40.902,25.12,82,34,4.12,KE,1685303924
451,umm kaddadah,13.6017,26.6876,28.66,42,53,5.79,SD,1685303924
452,mokhotlong,-29.2894,29.0675,8.51,77,14,1.88,LS,1685303924
453,parauapebas,-6.0675,-49.9022,31.99,58,40,2.57,BR,1685303925
454,tocache,-8.1842,-76.5125,29.69,65,62,0.91,PE,1685303925
455,taltal,-25.4,-70.4833,20.04,70,26,2.53,CL,1685303227
456,salihli,38.4826,28.1477,17.98,87,100,1.31,TR,1685303926
457,chibougamau,49.9168,-74.3659,16.79,34,0,5.14,CA,1685303926
458,ta`u,-14.2336,-169.5144,28.22,78,63,6.75,AS,1685303927
459,taroudant,30.4703,-8.877,18.74,62,46,4.68,MA,1685303927
460,namibe,-15.1961,12.1522,18.44,69,20,4.8,AO,1685303928
461,scottburgh,-30.2867,30.7532,21.22,64,58,2.71,ZA,1685303928
462,dunedin,-45.8742,170.5036,11.56,75,98,2.68,NZ,1685303928
463,ginir,7.1333,40.7,14.6,87,100,2.5,ET,1685303929
464,dzhambeyty,50.2536,52.595,22.52,31,100,3.8,KZ,1685303929
465,cockburn town,21.4612,-71.1419,27.88,80,100,6.23,TC,1685303930
466,santa terezinha,-29.9002,-50.0904,16.97,61,89,2.88,BR,1685303930
467,las terrenas,19.311,-69.5428,31.93,74,40,5.14,DO,1685303829
468,east london,-33.0153,27.9116,18.32,67,88,4.17,ZA,1685303931
469,kalinkavichy,52.1323,29.3257,9.44,63,0,2.46,BY,1685303932
470,marica,-22.9194,-42.8186,26.97,83,7,2.01,BR,1685303932
471,gebeit,21.0667,36.3167,28.23,42,70,6.69,SD,1685303932
472,bol'sherech'ye,56.0925,74.6272,11.54,62,6,1.77,RU,1685303933
473,tutoia,-2.7619,-42.2744,26.73,87,96,2.76,BR,1685303933
474,taoudenni,22.6783,-3.9836,34.44,19,12,4.21,ML,1685303934
475,tobelo,1.7284,128.0095,26.21,81,100,2.8,ID,1685303934
476,holualoa,19.6228,-155.9522,25.43,75,75,6.17,US,1685303934
477,vilyuysk,63.7553,121.6247,6.49,65,2,1.52,RU,1685303935
478,quepos,9.4236,-84.1652,28.98,74,100,2.21,CR,1685303935
479,haiku-pauwela,20.9219,-156.3051,25.58,61,20,3.6,US,1685303936
480,nili,33.7218,66.1302,18.03,32,83,2.89,AF,1685303937
481,manay,7.215,126.5397,26.16,80,95,4.38,PH,1685303937
482,timimoun,29.2639,0.231,33.21,9,0,5.66,DZ,1685303937
483,angaur state,6.906,134.13,28.99,78,100,6.95,PW,1685303938
484,ulsteinvik,62.3432,5.8487,7.5,67,55,4.47,NO,1685303938
485,tamiahua,21.2667,-97.45,30.29,58,10,5.15,MX,1685303939
486,wagoner,35.9595,-95.3694,29.8,49,99,1.65,US,1685303939
487,klaksvik,62.2266,-6.589,8.51,82,100,9.74,FO,1685303939
488,as suki,13.3167,33.8833,32.21,41,83,3.15,SD,1685303940
489,i-n-salah,27.1935,2.4607,30.17,8,32,4.89,DZ,1685303940
490,srednyaya yelyuzan',53.0241,45.9529,13.12,94,14,1.75,RU,1685303941
491,tocopilla,-22.092,-70.1979,22.15,66,21,4.96,CL,1685303514
492,huilong,31.8111,121.655,21.6,98,100,3.47,CN,1685303942
493,aasiaat,68.7098,-52.8699,-3.24,68,57,2.29,GL,1685303942
494,beloretsk,53.9631,58.3981,18.84,50,84,0.85,RU,1685303943
495,holmsund,63.706,20.3641,9.97,57,0,4.63,SE,1685303944
496,marka,1.7159,44.7717,26.14,80,91,5.48,SO,1685303944
497,la ronge,55.1001,-105.2842,20.14,45,75,5.14,CA,1685303945
498,genhe,50.7833,121.5167,2.93,63,77,0.61,CN,1685303945
499,papao,-17.75,-149.55,28.82,76,9,10.06,PF,1685303945
500,sola,-13.8833,167.55,26.4,71,10,5.78,VU,1685303946
501,dingcheng,32.1272,115.0394,20.8,93,99,3.22,CN,1685303946
502,illintsi,49.1048,29.2177,11.37,71,0,3.49,UA,1685303947
503,keflavik,64.0049,-22.5624,8.24,100,100,9.77,IS,1685303947
504,la punta,-33.1837,-66.3127,14.96,47,100,2.01,AR,1685303948
505,oyama,36.3,139.8,22.55,77,100,1.31,JP,1685303948
506,pechora,65.1472,57.2244,12.35,67,100,3.94,RU,1685303948
507,dhulikhel,27.6189,85.5529,17.43,70,84,1.38,NP,1685303949
508,uliastay,47.7417,96.8444,10.67,30,100,2.51,MN,1685303949
509,weno,7.4515,151.8468,27.97,89,100,3.6,FM,1685303950
510,jos,9.9167,8.9,21.79,79,100,2.09,NG,1685303950
511,bodo,67.28,14.405,6.54,95,75,8.75,NO,1685303951
512,richards bay,-28.783,32.0377,21.66,68,77,4.87,ZA,1685303951
513,mar del plata,-38.0023,-57.5575,11.64,54,0,6.69,AR,1685303952
514,inarajan village,13.2736,144.7484,27.35,85,92,7.18,GU,1685303952
515,toliara,-23.35,43.6667,21.57,65,51,3.82,MG,1685303757
516,agat village,13.3886,144.6585,27.21,85,97,7.09,GU,1685303953
517,siracusa,37.0881,15.2792,20.65,79,1,2.74,IT,1685303953
518,khandyga,62.6667,135.6,7.6,64,4,1.6,RU,1685303954
519,yeppoon,-23.1333,150.7333,6.88,55,0,2.68,AU,1685303954
520,nicoya,10.1483,-85.452,31.21,57,100,1.36,CR,1685303955
521,broken hill,-31.95,141.4333,9.85,87,28,4.23,AU,1685303879
522,konokovo,44.8616,41.3266,17.39,91,89,2.62,RU,1685303955
523,pacifica,37.6138,-122.4869,19.57,83,100,6.69,US,1685303956
524,saint-pol-sur-mer,51.0312,2.3398,13.98,40,91,1.79,FR,1685303956
525,karachi,24.9056,67.0822,29.9,74,75,4.63,PK,1685303542
526,araripina,-7.5761,-40.4983,23.24,72,80,3.24,BR,1685303957
527,paita,-5.0892,-81.1144,25.99,70,73,7.21,PE,1685303957
528,puerto baquerizo moreno,-0.9,-89.6,28.55,79,40,5.66,EC,1685303958
529,kudahuvadhoo,2.6708,72.8944,28.98,75,95,5.63,MV,1685303958
530,cherykaw,53.5692,31.3793,8.32,72,0,1.34,BY,1685303959
531,atbara,17.7022,33.9864,38.15,18,39,3.72,SD,1685303959
532,visby,57.6409,18.296,13.12,71,0,1.03,SE,1685303960
533,nidau,47.1255,7.2403,19.05,67,0,2.57,CH,1685303960
534,muroto-misakicho,33.2833,134.15,20.86,91,94,4.07,JP,1685303960
535,shendi,16.6915,33.4341,38.12,18,46,3.73,SD,1685303961
536,pedro carbo,-1.8333,-80.2333,29.63,70,97,1.48,EC,1685303961
537,garachico,28.7781,-17.7646,21.06,60,40,2.06,ES,1685303962
538,uchkeken,43.9378,42.5117,14.49,89,100,2.26,RU,1685303962
539,vila velha,-20.3297,-40.2925,25.97,83,20,4.63,BR,1685303894
540,kiruhura,-2.4773,29.7679,15.75,88,56,1.72,RW,1685303963
541,floro,61.5996,5.0328,7.35,61,20,3.6,NO,1685303963
542,trinidad,-14.8333,-64.9,20.99,100,100,5.14,BO,1685303964
543,afif,23.9065,42.9172,28.72,35,100,6.96,SA,1685303964
544,manicore,-5.8092,-61.3003,32.97,62,40,2.57,BR,1685303964
545,zijinglu,34.76,112.9714,18.31,92,100,1.36,CN,1685303965
546,luau,-10.7073,22.2247,17.31,36,95,0.61,AO,1685303965
547,enterprise,36.0252,-115.2419,33.79,12,20,6.69,US,1685303966
548,al manzalah,31.1582,31.937,22.95,66,0,5.04,EG,1685303966
549,saint-jean-sur-richelieu,45.3168,-73.2659,31.01,20,0,5.14,CA,1685303818
550,salinopolis,-0.6136,-47.3561,27.67,80,86,4.36,BR,1685303967
551,minneapolis,44.98,-93.2638,28.58,25,0,6.69,US,1685303928
552,greymouth,-42.4667,171.2,12.28,83,100,4.2,NZ,1685303968
553,lata,40.1629,-8.3327,16.71,98,98,1.55,PT,1685303968
554,afaahiti,-17.75,-149.2833,27.93,75,88,8.85,PF,1685303969
555,griffith,41.5284,-87.4237,28.47,35,0,4.12,US,1685303969
556,gwadar,25.1216,62.3254,29.56,78,0,3.32,PK,1685303970
557,port nelson,23.6333,-74.8333,27.62,78,3,2.23,BS,1685303970
558,bubaque,11.2833,-15.8333,27.44,82,65,7.62,GW,1685303971
559,ust-tsilma,65.441,52.1498,11.27,56,100,3.08,RU,1685303971
560,mohr,54.3528,9.7167,14.08,64,42,5.14,DE,1685303972
